{
  "_note": "Indicative median weekly rents for demo purposes, based on public NSW Rent and Sales Report style data. Verify/refresh from https://www.dcj.nsw.gov.au/about-us/families-and-communities-statistics/housing-rent-and-sales.html before the demo. 'places' are well-known landmarks used to personalise the map; coordinates are approximate.",
  "suburbs": [
    {"name": "Parramatta", "lat": -33.8151, "lng": 151.0011, "rent_unit_2br": 620, "rent_house_3br": 750, "train_lines": ["T1", "T5"], "notes": "Major western hub; jobs, hospital, university nearby"},
    {"name": "Westmead", "lat": -33.8073, "lng": 150.9877, "rent_unit_2br": 580, "rent_house_3br": 720, "train_lines": ["T1", "T5"], "notes": "Hospital precinct, family friendly"},
    {"name": "Granville", "lat": -33.8336, "lng": 151.0117, "rent_unit_2br": 540, "rent_house_3br": 680, "train_lines": ["T1", "T2"], "notes": "Affordable, diverse community, close to Parramatta"},
    {"name": "Auburn", "lat": -33.8497, "lng": 151.0331, "rent_unit_2br": 520, "rent_house_3br": 670, "train_lines": ["T1", "T2"], "notes": "Very multicultural, strong grocery options"},
    {"name": "Blacktown", "lat": -33.7710, "lng": 150.9063, "rent_unit_2br": 480, "rent_house_3br": 620, "train_lines": ["T1", "T5"], "notes": "Budget friendly, larger homes"},
    {"name": "Strathfield", "lat": -33.8792, "lng": 151.0825, "rent_unit_2br": 650, "rent_house_3br": 900, "train_lines": ["T1", "T2", "T9"], "notes": "Excellent rail connections, good schools"},
    {"name": "Ashfield", "lat": -33.8886, "lng": 151.1255, "rent_unit_2br": 600, "rent_house_3br": 850, "train_lines": ["T2", "T3"], "notes": "Inner west, multicultural, close to city"},
    {"name": "Hurstville", "lat": -33.9672, "lng": 151.1023, "rent_unit_2br": 620, "rent_house_3br": 820, "train_lines": ["T4", "T8"], "notes": "Southern hub, big shopping district"},
    {"name": "Bankstown", "lat": -33.9181, "lng": 151.0352, "rent_unit_2br": 520, "rent_house_3br": 690, "train_lines": ["T3"], "notes": "Affordable, very multicultural"},
    {"name": "Chatswood", "lat": -33.7969, "lng": 151.1803, "rent_unit_2br": 780, "rent_house_3br": 1100, "train_lines": ["T1", "M1"], "notes": "North shore hub, premium rents"},
    {"name": "Liverpool", "lat": -33.9203, "lng": 150.9243, "rent_unit_2br": 470, "rent_house_3br": 610, "train_lines": ["T2", "T5"], "notes": "South west, most affordable on this list"},
    {"name": "Epping", "lat": -33.7728, "lng": 151.0819, "rent_unit_2br": 680, "rent_house_3br": 950, "train_lines": ["T9", "M1"], "notes": "Metro + heavy rail, sought-after schools"}
  ],
  "places": [
    {"suburb": "Parramatta", "type": "groceries", "name": "Westfield Parramatta", "lat": -33.8175, "lng": 151.0050, "desc": "Big shopping centre — Coles, Woolworths, Aldi and everyday shops under one roof."},
    {"suburb": "Parramatta", "type": "food", "name": "Church Street 'Eat Street'", "lat": -33.8120, "lng": 150.9990, "desc": "A long strip of affordable cafes and restaurants from every cuisine."},
    {"suburb": "Parramatta", "type": "park", "name": "Parramatta Park", "lat": -33.8088, "lng": 150.9985, "desc": "Huge riverside park — free to enjoy, great for a walk or picnic."},
    {"suburb": "Parramatta", "type": "transport", "name": "Parramatta Station & Ferry", "lat": -33.8172, "lng": 151.0048, "desc": "Trains, buses and a ferry to the city — your main transport hub."},
    {"suburb": "Parramatta", "type": "services", "name": "Service NSW Parramatta", "lat": -33.8146, "lng": 151.0036, "desc": "Government one-stop shop for licences, registrations and IDs."},
    {"suburb": "Westmead", "type": "health", "name": "Westmead Hospital", "lat": -33.8021, "lng": 150.9866, "desc": "Major public hospital with a large emergency department."},
    {"suburb": "Auburn", "type": "groceries", "name": "Auburn Central & international grocers", "lat": -33.8493, "lng": 151.0330, "desc": "Affordable supermarkets plus Middle Eastern and Asian grocery stores."},
    {"suburb": "Auburn", "type": "food", "name": "Auburn Road eateries", "lat": -33.8490, "lng": 151.0335, "desc": "Turkish bakeries, kebabs and budget-friendly family restaurants."},
    {"suburb": "Auburn", "type": "park", "name": "Auburn Botanic Gardens", "lat": -33.8560, "lng": 151.0470, "desc": "Peaceful Japanese-style gardens — a lovely free spot to relax."},
    {"suburb": "Granville", "type": "food", "name": "South Street food strip", "lat": -33.8340, "lng": 151.0120, "desc": "Lebanese sweets, charcoal chicken and cheap eats near the station."},
    {"suburb": "Granville", "type": "transport", "name": "Granville Station", "lat": -33.8338, "lng": 151.0118, "desc": "Train interchange with quick links to Parramatta and the city."},
    {"suburb": "Blacktown", "type": "groceries", "name": "Westpoint Blacktown", "lat": -33.7689, "lng": 150.9056, "desc": "Large shopping centre with major supermarkets and cheap shops."},
    {"suburb": "Blacktown", "type": "park", "name": "Western Sydney Parklands", "lat": -33.8000, "lng": 150.9000, "desc": "One of the world's largest urban parks — cycling, BBQs and playgrounds."},
    {"suburb": "Liverpool", "type": "groceries", "name": "Westfield Liverpool", "lat": -33.9210, "lng": 150.9230, "desc": "Everything in one place — supermarkets, banks and Service NSW nearby."},
    {"suburb": "Liverpool", "type": "services", "name": "Service NSW Liverpool", "lat": -33.9200, "lng": 150.9230, "desc": "Sort your licence, registration and other government tasks here."},
    {"suburb": "Liverpool", "type": "health", "name": "Liverpool Hospital", "lat": -33.9230, "lng": 150.9270, "desc": "Major public hospital serving the south-west."},
    {"suburb": "Bankstown", "type": "food", "name": "Bankstown food scene", "lat": -33.9180, "lng": 151.0350, "desc": "Famous for Vietnamese pho, banh mi and late-night dessert spots."},
    {"suburb": "Bankstown", "type": "groceries", "name": "Bankstown Central", "lat": -33.9175, "lng": 151.0330, "desc": "Shopping centre with affordable supermarkets and fresh produce markets."},
    {"suburb": "Strathfield", "type": "food", "name": "Strathfield Korean BBQ strip", "lat": -33.8780, "lng": 151.0830, "desc": "Korean BBQ, fried chicken and dessert cafes near the station."},
    {"suburb": "Strathfield", "type": "transport", "name": "Strathfield Station", "lat": -33.8716, "lng": 151.0954, "desc": "One of Sydney's biggest interchanges — fast trains everywhere."},
    {"suburb": "Ashfield", "type": "food", "name": "Ashfield Shanghai eats", "lat": -33.8880, "lng": 151.1250, "desc": "Known for Shanghainese dumplings and pan-fried buns."},
    {"suburb": "Ashfield", "type": "groceries", "name": "Ashfield Mall", "lat": -33.8888, "lng": 151.1245, "desc": "Handy local mall with supermarkets and everyday services."},
    {"suburb": "Hurstville", "type": "groceries", "name": "Westfield Hurstville", "lat": -33.9665, "lng": 151.1020, "desc": "Big shopping centre and a large Asian grocery scene around it."},
    {"suburb": "Hurstville", "type": "food", "name": "Forest Road food strip", "lat": -33.9675, "lng": 151.1030, "desc": "Cantonese, Hong Kong cafes and bubble tea galore."},
    {"suburb": "Chatswood", "type": "groceries", "name": "Chatswood Chase & Westfield", "lat": -33.7965, "lng": 151.1810, "desc": "Two large malls side by side with supermarkets and food courts."},
    {"suburb": "Chatswood", "type": "food", "name": "Chatswood food courts", "lat": -33.7975, "lng": 151.1800, "desc": "Buzzing Asian eat streets — ramen, hotpot and dumplings."},
    {"citywide": true, "suburb": "Bondi", "type": "beach", "name": "Bondi Beach", "lat": -33.8908, "lng": 151.2743, "desc": "Sydney's iconic beach with a famous coastal walk to Coogee."},
    {"citywide": true, "suburb": "Coogee", "type": "beach", "name": "Coogee Beach", "lat": -33.9190, "lng": 151.2590, "desc": "Family-friendly beach with calm bays and ocean pools."},
    {"citywide": true, "suburb": "Manly", "type": "beach", "name": "Manly Beach", "lat": -33.7969, "lng": 151.2877, "desc": "Reached by a scenic ferry from the city — surf and seaside dining."},
    {"citywide": true, "suburb": "Cronulla", "type": "beach", "name": "Cronulla Beach", "lat": -34.0577, "lng": 151.1543, "desc": "The only Sydney beach you can reach directly by train."},
    {"citywide": true, "suburb": "Sydney Olympic Park", "type": "park", "name": "Sydney Olympic Park", "lat": -33.8470, "lng": 151.0670, "desc": "Wetlands, bike paths and big event venues — easy to reach by train."},
    {"citywide": true, "suburb": "Centennial", "type": "park", "name": "Centennial Park", "lat": -33.8970, "lng": 151.2330, "desc": "Vast green park near the city — perfect for picnics and cycling."}
  ]
}
